월,이름,한줄 소개,국가,날씨,온도,추천 이유,이미지 URL,항공권 가격,비행시간,제휴 링크,제휴 안내,CTA 문구,위도,경도
1,방콕,겨울을 잊게 해주는 동남아의 황금도시,th,더움,28-34°C,"1월은 태국의 건기로 비가 거의 내리지 않아 여행하기 최적의 시즌입니다. 왕궁, 왓포 사원, 차오프라야 강변 야시장까지 맑은 하늘 아래 만끽할 수 있어요.",https://images.unsplash.com/photo-1563492065599-3520f775eeed?w=800,"₩500,000~",약 6시간,,,트립닷컴에서 항공권 확인하기,13.75,100.52
1,치앙마이,북부 태국의 고즈넉한 사원 도시,th,서늘함,15-25°C,"방콕보다 훨씬 서늘하고 습도도 낮아 트레킹과 사원 탐방에 이상적입니다. 도이수텝 사원, 코끼리 보호구역, 님만해민 카페 거리 등 다양한 매력이 있습니다.",https://images.unsplash.com/photo-1569468032074-ed6de9f0b7f1?w=800,"₩550,000~",약 6시간 30분,,,트립닷컴에서 항공권 확인하기,18.79,98.98
1,하노이,프렌치 콜로니얼 감성이 살아있는 천년 고도,vn,서늘함,14-20°C,"1월 하노이는 약간 서늘하고 안개 낀 날씨지만 오히려 운치 있습니다. 호안끼엠 호수 산책, 구시가지 골목 탐방, 에그커피 한 잔의 여유를 즐기기 좋습니다.",https://images.unsplash.com/photo-1509973385459-f90de7fc2ee2?w=800,"₩400,000~",약 5시간,,,트립닷컴에서 항공권 확인하기,21.03,105.85
1,리스본,유럽에서 가장 따뜻한 겨울을 품은 항구 도시,pt,서늘함,10-16°C,1월 유럽은 대부분 혹한이지만 리스본은 온화합니다. 비수기라 관광객도 적고 항공권과 호텔 모두 저렴해 가성비 최고의 유럽 여행지입니다.,https://images.unsplash.com/photo-1555881400-74d7acaacd8b?w=800,"₩1,200,000~",약 14시간,,,트립닷컴에서 항공권 확인하기,38.72,-9.14
1,테네리페,아프리카 앞바다의 유럽 휴양 낙원,es,쾌청함,18-24°C,"겨울에도 봄처럼 따뜻한 이 섬은 유럽인들의 겨울 피서지입니다. 테이데 화산 국립공원 트레킹, 흑모래 해변, 수선화 피어나는 풍경을 유럽 분위기로 즐길 수 있습니다.",https://images.unsplash.com/photo-1547036967-23d11aacaee0?w=800,"₩1,500,000~",약 15시간,,,트립닷컴에서 항공권 확인하기,28.29,-16.63
1,마라케시,아라비안 나이트가 살아 숨 쉬는 붉은 도시,ma,서늘함,10-18°C,"1월은 마라케시 최고의 여행 시즌입니다. 무더위 없이 쾌적하게 제마엘프나 광장, 수크 시장, 쿠투비아 모스크를 즐길 수 있습니다.",https://images.unsplash.com/photo-1539020140153-e479b8c22e70?w=800,"₩1,300,000~",약 13시간,,,트립닷컴에서 항공권 확인하기,31.63,-8.0
1,아바나,시간이 멈춘 카리브해의 클래식 카 도시,cu,쾌청함,20-26°C,"1월은 쿠바의 건기로 여행 최성수기입니다. 올드 아바나의 빛바랜 식민지 건축물, 1950년대 클래식카, 살사 음악이 독특한 세계를 펼칩니다.",https://images.unsplash.com/photo-1500759285222-a95626359a47?w=800,"₩2,000,000~",약 20시간(경유),,,트립닷컴에서 항공권 확인하기,23.14,-82.36
1,칸쿤,마야 문명과 카리브해 에메랄드 바다의 만남,mx,더움,24-30°C,"1월은 멕시코 카리브해의 건기로 허리케인 걱정 없이 눈부신 해변을 즐길 수 있습니다. 치첸이트사 마야 유적, 툴룸 절벽 위 신전, 세노테 수영까지 즐겨보세요.",https://images.unsplash.com/photo-1552074284-5e88ef1aef18?w=800,"₩1,800,000~",약 18시간(경유),,,트립닷컴에서 항공권 확인하기,21.16,-86.85
1,뉴올리언스,"재즈와 크레올 요리, 미국 속 또 다른 세계",us,서늘함,10-17°C,"1월 비수기라 관광객이 적고 여유롭게 프렌치 쿼터를 즐길 수 있습니다. 재즈 바, 버번 스트리트, 검보 요리까지 2월 마디그라 직전 도시가 들떠 있습니다.",https://images.unsplash.com/photo-1568849897151-1f35e28c9e46?w=800,"₩1,500,000~",약 16시간(경유),,,트립닷컴에서 항공권 확인하기,29.95,-90.07
1,도쿄,전통과 현대가 조화로운 일본의 수도,jp,맑음,5-15°C,"일본의 수도 도쿄는 전통과 현대가 조화롭게 어우러진 매력적인 도시입니다. 봄에는 아름다운 벚꽃을, 가을에는 단풍을, 겨울에는 일루미네이션을 즐길 수 있습니다.",https://images.unsplash.com/photo-1648871647634-0c99b483cb63?crop=entropy&cs=tinysrgb&fit=max&fm=jpg&ixid=M3w3Nzg4Nzd8MHwxfHNlYXJjaHwxfHxUb2t5byUyMEphcGFuJTIwY2l0eXNjYXBlfGVufDF8fHx8MTc3MTc0MjI1M3ww&ixlib=rb-4.1.0&q=80&w=1080&utm_source=figma&utm_medium=referral,"₩350,000~",직항 약 2시간 30분,,,트립닷컴에서 항공권 확인하기,35.68,139.69
1,몰디브,세계에서 가장 아름다운 해변과 럭셔리 리조트,mv,맑음,28-32°C,"세계에서 가장 아름다운 해변과 럭셔리 리조트로 유명한 몰디브. 스노클링, 다이빙 등 다양한 해양 스포츠를 즐기며 완벽한 휴식을 취할 수 있습니다.",https://images.unsplash.com/photo-1698726654862-377c0218dfdc?crop=entropy&cs=tinysrgb&fit=max&fm=jpg&ixid=M3w3Nzg4Nzd8MHwxfHNlYXJjaHwxfHxNYWxkaXZlcyUyMGJlYWNoJTIwcmVzb3J0fGVufDF8fHx8MTc3MTc0Nzc1NXww&ixlib=rb-4.1.0&q=80&w=1080&utm_source=figma&utm_medium=referral,"₩1,200,000~",직항 약 8시간,,,트립닷컴에서 항공권 확인하기,3.2,73.22
1,두바이,부르즈 칼리파와 럭셔리가 있는 중동의 허브,ae,쾌적함,20-30°C,"세계 최고층 건물 부르즈 칼리파와 럭셔리 쇼핑몰, 인공 섬 팜 주메이라 등 화려한 볼거리가 가득한 두바이. 겨울철 여행지로 최고입니다.",https://images.unsplash.com/photo-1678789515224-a60b886cf119?crop=entropy&cs=tinysrgb&fit=max&fm=jpg&ixid=M3w3Nzg4Nzd8MHwxfHNlYXJjaHwxfHxEdWJhaSUyMFVBRSUyMHNreWxpbmV8ZW58MXx8fHwxNzcxNjU1NzYwfDA&ixlib=rb-4.1.0&q=80&w=1080&utm_source=figma&utm_medium=referral,"₩650,000~",직항 약 8시간,,,트립닷컴에서 항공권 확인하기,25.2,55.27
2,발리(우붓),"신들의 섬, 정글 속 힐링의 성지",id,더움,25-30°C,"2월은 발리 우붓 라이스테라스가 초록빛으로 물드는 시기입니다. 강 래프팅, 숲 속 요가 리트릿, 계단식 논밭 감상까지 비가 조금 오지만 신비로운 분위기입니다.",https://images.unsplash.com/photo-1537996194471-e657df975ab4?w=800,"₩600,000~",약 7시간,,,트립닷컴에서 항공권 확인하기,-8.51,115.26
2,후에,베트남 마지막 왕조의 황궁 도시,vn,서늘함,16-22°C,"중부 베트남의 고도 후에는 2월에 비교적 건조해 황성, 황제릉, 티엔무 사원을 여유롭게 둘러볼 수 있습니다. 베트남 왕실 요리도 특별한 경험입니다.",https://images.unsplash.com/photo-1580648280939-6b89db5c8c27?w=800,"₩450,000~",약 5시간 30분,,,트립닷컴에서 항공권 확인하기,16.46,107.6
2,싱가포르,"아시아의 미래 도시, 다양성의 용광로",sg,더움,25-32°C,"2월 구정 시즌에 싱가포르를 방문하면 차이나타운의 화려한 등 장식과 음식 축제를 즐길 수 있습니다. 마리나 베이 샌즈, 가든스 바이 더 베이도 필수 코스입니다.",https://images.unsplash.com/photo-1525625293386-3f8f99389edd?w=800,"₩500,000~",약 6시간 30분,,,트립닷컴에서 항공권 확인하기,1.35,103.82
2,베니스,"물 위에 떠 있는 중세 도시, 영원한 낭만의 상징",it,서늘함,4-10°C,2월 베니스 카니발 기간에는 화려한 가면과 코스튬을 입은 사람들이 운하를 누빕니다. 비수기라 숙박비가 저렴하고 진짜 베니스를 느낄 수 있는 시기입니다.,https://images.unsplash.com/photo-1514890547357-a9ee288728e0?w=800,"₩1,400,000~",약 13시간,,,트립닷컴에서 항공권 확인하기,45.44,12.32
2,더블린,기네스 맥주와 켈트 문화의 에메랄드 도시,ie,서늘함,5-10°C,"2월 비수기라 항공권과 숙박이 저렴합니다. 트리니티 칼리지, 기네스 스토어하우스, 아이리시 펍 라이브 음악을 즐겨보세요. 몰허 절벽 당일치기도 추천합니다.",https://images.unsplash.com/photo-1549918864-48ac978761a4?w=800,"₩1,300,000~",약 14시간,,,트립닷컴에서 항공권 확인하기,53.33,-6.25
2,암스테르담,"운하의 도시, 자전거와 튤립의 나라",nl,서늘함,3-8°C,"2월 비수기 암스테르담은 국립미술관, 반 고흐 미술관을 여유롭게 즐길 수 있습니다. 운하를 따라 자전거를 타며 진짜 암스테르담 일상을 경험해보세요.",https://images.unsplash.com/photo-1534351590666-13e3e96b5017?w=800,"₩1,300,000~",약 13시간,,,트립닷컴에서 항공권 확인하기,52.37,4.9
2,리우데자네이루,세계 최대 카니발이 열리는 삼바의 도시,br,더움,26-34°C,"2월은 리우 카니발 시즌! 세계 3대 축제 중 하나인 화려한 삼바 퍼레이드를 직접 볼 수 있습니다. 코르코바두 예수상, 이파네마 해변, 슈가로프 산까지 즐겨보세요.",https://images.unsplash.com/photo-1483729558449-99ef09a8c325?w=800,"₩2,000,000~",약 22시간(경유),,,트립닷컴에서 항공권 확인하기,-22.91,-43.17
2,부에노스아이레스,"탱고와 스테이크, 남미의 파리",ar,더움,22-30°C,"남반구의 한여름인 2월, 부에노스아이레스는 활기가 넘칩니다. 라 보카 거리, 탱고 쇼, 레콜레타 묘지 산책, 팜파스 스테이크 하우스까지 빠져들 것들 투성입니다.",https://images.unsplash.com/photo-1589909202802-8f4aadce1849?w=800,"₩1,900,000~",약 23시간(경유),,,트립닷컴에서 항공권 확인하기,-34.61,-58.38
2,뉴올리언스,재즈와 마디그라 축제의 황홀한 도시,us,서늘함,12-18°C,2월 마디그라 시즌의 뉴올리언스는 화려한 퍼레이드와 살사 음악으로 온 도시가 파티장이 됩니다. 크레올 요리와 라이브 음악으로 독특한 미국 문화를 경험하세요.,https://images.unsplash.com/photo-1619112038068-a71c2f2cd28a?w=800,"₩1,700,000~",약 16시간(경유),,,트립닷컴에서 항공권 확인하기,29.95,-90.07
2,발리,"해변과 사원, 라이스 테라스의 휴양 천국",id,화창함,26-31°C,"아름다운 해변과 사원, 라이스 테라스로 유명한 발리. 요가와 스파, 서핑을 즐기며 몸과 마음을 재충전할 수 있는 완벽한 휴양지입니다.",https://images.unsplash.com/photo-1604741872417-230e572a4c72?crop=entropy&cs=tinysrgb&fit=max&fm=jpg&ixid=M3w3Nzg4Nzd8MHwxfHNlYXJjaHwxfHxCYWxpJTIwSW5kb25lc2lhJTIwdGVtcGxlfGVufDF8fHx8MTc3MTc0Nzc1Nnww&ixlib=rb-4.1.0&q=80&w=1080&utm_source=figma&utm_medium=referral,"₩450,000~",직항 약 6시간 30분,,,트립닷컴에서 항공권 확인하기,-8.34,115.09
2,리우데자네이루,"코파카바나와 예수상, 카니발의 열정 도시",br,더움,25-35°C,코파카바나 해변과 예수상으로 유명한 리우데자네이루. 2월 카니발 시즌에는 전 세계에서 가장 화려하고 열정적인 축제를 경험할 수 있습니다.,https://images.unsplash.com/photo-1649934126054-7687cdcef7d1?crop=entropy&cs=tinysrgb&fit=max&fm=jpg&ixid=M3w3Nzg4Nzd8MHwxfHNlYXJjaHwxfHxSaW8lMjBkZSUyMEphbmVpcm8lMjBCcmF6aWx8ZW58MXx8fHwxNzcxNzQ3NzU3fDA&ixlib=rb-4.1.0&q=80&w=1080&utm_source=figma&utm_medium=referral,"₩1,500,000~",경유 약 24시간,,,트립닷컴에서 항공권 확인하기,-22.91,-43.17
3,도쿄,벚꽃이 터지는 세계 최대의 대도시,jp,쾌청함,8-16°C,"3월 말~4월 초, 도쿄의 우에노 공원, 신주쿠 교엔, 메구로강변이 벚꽃으로 뒤덮입니다. 하나미 문화와 함께 편의점 사쿠라 한정 메뉴까지, 봄 도쿄는 특별합니다.",https://images.unsplash.com/photo-1540959733332-eab4deabeeaf?w=800,"₩300,000~",약 2시간 30분,,,트립닷컴에서 항공권 확인하기,35.68,139.69
3,교토,"천 년 고도의 봄, 기온 거리의 벚꽃 터널",jp,쾌청함,7-15°C,"기온 거리, 마루야마 공원, 철학의 길의 벚꽃은 교토를 그림엽서 속으로 만들어줍니다. 게이샤를 마주칠 수 있는 거리를 거닐며 봄 교토의 우아함을 느껴보세요.",https://images.unsplash.com/photo-1493976040374-85c8e12f0c0e?w=800,"₩350,000~",약 2시간 30분,,,트립닷컴에서 항공권 확인하기,35.01,135.77
3,오사카,오사카성 공원의 벚꽃 삼각편대,jp,쾌청함,8-16°C,"오사카성 공원의 벚꽃, 나라의 사슴과 벚꽃, 고베 항구와 벚꽃의 조합은 완벽한 봄 일본 여행입니다. 세 도시를 묶어 여행하면 다양한 매력을 한 번에 즐길 수 있습니다.",https://images.unsplash.com/photo-1551641506-ee5bf4cb45f1?w=800,"₩300,000~",약 2시간,,,트립닷컴에서 항공권 확인하기,34.69,135.5
3,암스테르담,세계 최대 튤립 공원 쾨켄호프의 계절,nl,서늘함,7-13°C,3월 말부터 5월까지 쾨켄호프 공원에서 700만 송이의 튤립이 피어납니다. 네덜란드의 봄은 전 세계 어디에서도 볼 수 없는 꽃의 바다를 선물합니다.,https://images.unsplash.com/photo-1523906834658-6e24ef2386f9?w=800,"₩1,300,000~",약 13시간,,,트립닷컴에서 항공권 확인하기,52.37,4.9
3,프라하,"동유럽의 동화 도시, 황금빛 첨탑의 수도",cz,서늘함,4-12°C,"비수기 끝 무렵인 3월 프라하는 관광객도 적고 항공권도 저렴합니다. 프라하성, 카를교, 구시가 광장을 여유롭게 즐기고 체코 맥주를 마음껏 즐겨보세요.",https://images.unsplash.com/photo-1541849546-216549ae216d?w=800,"₩1,200,000~",약 12시간,,,트립닷컴에서 항공권 확인하기,50.08,14.44
3,포르투,아줄레주 타일과 포트 와인의 언덕 도시,pt,서늘함,10-16°C,"3월 봄이 시작되는 포르투는 미모사 꽃이 노랗게 피어납니다. 동 루이스 철교 전망, 렐루 서점, 포트 와인 셀러 투어까지. 리스본보다 소박하지만 더 진실된 포르투갈입니다.",https://images.unsplash.com/photo-1555881400-74d7acaacd8b?w=800,"₩1,250,000~",약 14시간,,,트립닷컴에서 항공권 확인하기,41.16,-8.63
3,파타고니아,"세상 끝의 빙하와 대자연, 트레커의 성지",ar,서늘함,8-15°C,"남반구의 초가을인 3월은 파타고니아 트레킹 최적기입니다. 페리토 모레노 빙하, 피츠로이 봉우리, 토레스 델 파이네의 장엄한 풍경을 맑은 날씨 속에 만날 수 있습니다.",https://images.unsplash.com/photo-1500534314209-a25ddb2bd429?w=800,"₩2,200,000~",약 24시간(경유),,,트립닷컴에서 항공권 확인하기,-50.34,-72.27
3,코스타리카,"생태관광의 천국, 열대 우림과 화산의 나라",cr,쾌청함,22-28°C,"건기가 끝나가는 3월 코스타리카는 여행하기 최적입니다. 아레날 화산, 몬테베르데 운무림, 마누엘 안토니오 해변까지 자연 그 자체를 즐길 수 있는 에코 투어리즘의 성지입니다.",https://images.unsplash.com/photo-1552465011-b4e21bf6e79a?w=800,"₩1,800,000~",약 19시간(경유),,,트립닷컴에서 항공권 확인하기,9.75,-83.75
3,포틀랜드,"힙스터 문화와 브루어리, 장미의 도시",us,서늘함,7-13°C,"3월 포틀랜드는 벚꽃이 피고 야외 파머스마켓이 열리며 봄이 시작됩니다. 파월 서점, VooDoo Doughnuts, 킬링필드 포도밭 와이너리까지 개성 넘치는 도시를 즐겨보세요.",https://images.unsplash.com/photo-1501004318641-b39e6451bec6?w=800,"₩1,600,000~",약 11시간,,,트립닷컴에서 항공권 확인하기,45.52,-122.68
3,도쿄,전통과 현대가 조화로운 일본의 수도,jp,맑음,5-15°C,"일본의 수도 도쿄는 전통과 현대가 조화롭게 어우러진 매력적인 도시입니다. 봄에는 아름다운 벚꽃을, 가을에는 단풍을, 겨울에는 일루미네이션을 즐길 수 있습니다.",https://images.unsplash.com/photo-1648871647634-0c99b483cb63?crop=entropy&cs=tinysrgb&fit=max&fm=jpg&ixid=M3w3Nzg4Nzd8MHwxfHNlYXJjaHwxfHxUb2t5byUyMEphcGFuJTIwY2l0eXNjYXBlfGVufDF8fHx8MTc3MTc0MjI1M3ww&ixlib=rb-4.1.0&q=80&w=1080&utm_source=figma&utm_medium=referral,"₩350,000~",직항 약 2시간 30분,,,트립닷컴에서 항공권 확인하기,35.68,139.69
3,바르셀로나,가우디 건축과 지중해 해변이 만나는 도시,es,화창함,18-26°C,"사그라다 파밀리아, 구엘 공원 등 가우디의 건축물로 유명한 바르셀로나. 지중해의 아름다운 해변과 맛있는 타파스를 즐길 수 있습니다.",https://images.unsplash.com/photo-1595685842822-7893ddb30176?crop=entropy&cs=tinysrgb&fit=max&fm=jpg&ixid=M3w3Nzg4Nzd8MHwxfHNlYXJjaHwxfHxCYXJjZWxvbmElMjBTcGFpbiUyMGFyY2hpdGVjdHVyZXxlbnwxfHx8fDE3NzE2NjYzNDJ8MA&ixlib=rb-4.1.0&q=80&w=1080&utm_source=figma&utm_medium=referral,"₩850,000~",직항 약 12시간,,,트립닷컴에서 항공권 확인하기,41.39,2.15
4,교토(봄 절정),"벚꽃 만개, 기온 마쓰리 축제의 달",jp,쾌청함,12-20°C,4월 기온 마쓰리 축제와 함께 교토의 봄은 절정을 맞습니다. 신록이 벚꽃을 대체하기 시작하고 녹차 정원과 대나무 숲이 생기를 더합니다. 가장 많은 관광객이 몰리지만 그만한 이유가 있습니다.,https://images.unsplash.com/photo-1528360983277-13d401cdc186?w=800,"₩350,000~",약 2시간 30분,,,트립닷컴에서 항공권 확인하기,35.01,135.77
4,세비야,"플라멩코와 타파스, 스페인 문화의 심장부",es,쾌청함,18-26°C,"4월 세마나 산타와 페리아 데 아브릴 축제가 열리는 세비야는 스페인 열정의 극치입니다. 알카사르 궁전, 히랄다 탑, 플라멩코 쇼가 함께 어우러집니다.",https://images.unsplash.com/photo-1558642084-fd07fae5282e?w=800,"₩1,300,000~",약 14시간,,,트립닷컴에서 항공권 확인하기,37.39,-5.99
4,파리,"봄의 파리, 사랑하는 사람과 걷고 싶은 도시",fr,쾌청함,12-18°C,"4월 파리는 마로니에 꽃이 피고 센 강변 카페들이 테라스를 열기 시작합니다. 봄의 에펠탑, 튈르리 정원 산책, 몽마르트 언덕의 아티스트들과 함께하는 봄 파리는 완벽합니다.",https://images.unsplash.com/photo-1502602898657-3e91760cbb34?w=800,"₩1,300,000~",약 12시간 30분,,,트립닷컴에서 항공권 확인하기,48.86,2.35
4,산토리니,"흰 벽과 파란 지붕, 에게해의 보석",gr,쾌청함,16-22°C,"4월 산토리니는 성수기 전이라 인파가 적고 가격도 합리적입니다. 이아 마을의 환상적인 석양, 화산 와이너리 투어, 붉은 해변과 검은 해변을 여유롭게 즐길 수 있는 최적의 시기입니다.",https://images.unsplash.com/photo-1570077188670-e3a8d69ac5ff?w=800,"₩1,500,000~",약 13시간,,,트립닷컴에서 항공권 확인하기,36.39,25.46
4,이스탄불,"두 대륙에 걸친 도시, 동서양의 교차로",tr,쾌청함,12-19°C,"4월 이스탄불은 튤립 축제가 열려 도시 전체가 꽃으로 덮입니다. 블루 모스크, 아야 소피아, 그랜드 바자르, 보스포러스 크루즈까지 동서양이 공존하는 독특한 경험을 제공합니다.",https://images.unsplash.com/photo-1541432901042-2d8bd64b4a9b?w=800,"₩1,100,000~",약 11시간,,,트립닷컴에서 항공권 확인하기,41.01,28.95
4,쿠스코,"잉카 제국의 수도, 마추픽추로 가는 관문",pe,서늘함,8-18°C,"4월은 페루 건기의 시작으로 마추픽추를 가장 선명하게 볼 수 있는 시기입니다. 쿠스코 구시가, 잉카 성벽, 삭사이와만 요새까지 잉카 문명의 신비를 가득 담을 수 있습니다.",https://images.unsplash.com/photo-1526392060635-9d6019884377?w=800,"₩2,000,000~",약 22시간(경유),,,트립닷컴에서 항공권 확인하기,-13.53,-71.97
4,멕시코시티,아즈텍 문명과 현대 미술이 공존하는 거대 도시,mx,쾌청함,14-26°C,"4월은 멕시코시티 여행 최적 시즌입니다. 소칼로 광장, 테오티우아칸 피라미드, 프리다 칼로 박물관, 차풀테펙 공원까지 라틴 아메리카 최대 도시의 깊은 매력에 빠져보세요.",https://images.unsplash.com/photo-1518638150340-f706e86654de?w=800,"₩1,600,000~",약 16시간(경유),,,트립닷컴에서 항공권 확인하기,19.43,-99.13
4,밴쿠버,산과 바다가 만나는 북미 최고의 자연 도시,ca,서늘함,10-16°C,"4월 밴쿠버는 벚꽃 시즌으로 밴쿠버 벚꽃 축제가 열립니다. 스탠리 파크 산책, 개스타운 탐방, 휘슬러 스키장 라스트 런, 킬리노 해변의 봄 풍경까지 도시와 자연이 조화롭습니다.",https://images.unsplash.com/photo-1559511260-65f3e8e0ef14?w=800,"₩1,300,000~",약 10시간,,,트립닷컴에서 항공권 확인하기,49.25,-123.12
4,파리,에펠탑과 예술이 살아 숨 쉬는 로맨틱 도시,fr,화창함,15-25°C,"에펠탑, 루브르 박물관, 개선문 등 세계적인 명소가 가득한 파리는 언제나 여행자들의 로망입니다. 봄과 가을의 파리는 특히 아름답습니다.",https://images.unsplash.com/photo-1642947392578-b37fbd9a4d45?crop=entropy&cs=tinysrgb&fit=max&fm=jpg&ixid=M3w3Nzg4Nzd8MHwxfHNlYXJjaHwxfHxQYXJpcyUyMEZyYW5jZSUyMEVpZmZlbCUyMFRvd2VyfGVufDF8fHx8MTc3MTc0Nzc1NHww&ixlib=rb-4.1.0&q=80&w=1080&utm_source=figma&utm_medium=referral,"₩800,000~",직항 약 12시간,,,트립닷컴에서 항공권 확인하기,48.86,2.35
5,삿포로,"라벤더와 눈 녹은 산, 일본의 또 다른 얼굴",jp,쾌청함,10-18°C,"5월 홋카이도는 늦봄 꽃들이 피어나고 겨울 내내 쌓인 눈이 녹아 산천이 살아납니다. 시로이 고이비토 파크, 삿포로 맥주 박물관, 비에이 구릉 드라이브까지 일본 본토와 다른 매력입니다.",https://images.unsplash.com/photo-1542051841857-5f90071e7989?w=800,"₩400,000~",약 3시간,,,트립닷컴에서 항공권 확인하기,43.06,141.35
5,부탄(팀푸),"세계에서 가장 행복한 나라, 히말라야의 왕국",bt,쾌청함,12-20°C,"5월은 부탄 트레킹 최적기입니다. 탁챙 사원(호랑이 둥지), 푸나카 종, 탈부 축제를 경험하며 국민 행복 지수를 실천하는 나라에서 진정한 슬로우 트래블을 즐겨보세요.",https://images.unsplash.com/photo-1561484930-998b6a7b22e8?w=800,"₩2,000,000~",약 7시간(경유),,,트립닷컴에서 항공권 확인하기,27.47,89.64
5,다낭,"아시아 최고의 해변 도시, 리조트 천국",vn,쾌청함,25-32°C,"5월은 다낭의 건기 절정기로 미케 해변과 논 느억 해변이 눈부시게 빛납니다. 바나힐 케이블카, 황금 손 다리, 호이안 구시가 야시장까지 해변과 문화를 함께 즐길 수 있습니다.",https://images.unsplash.com/photo-1562604957-38c28e7e9b34?w=800,"₩400,000~",약 5시간,,,트립닷컴에서 항공권 확인하기,16.05,108.2
5,두브로브니크,"아드리아해의 보석, 왕좌의 게임 촬영지",hr,쾌청함,18-26°C,"5월은 두브로브니크 성수기 직전으로 인파는 적고 날씨는 완벽합니다. 성벽 걷기, 케이블카 전망대, 투명한 아드리아해에서의 수영까지 지중해 최고의 구시가를 여유롭게 즐길 수 있습니다.",https://images.unsplash.com/photo-1555990538-1ebee592f0fe?w=800,"₩1,400,000~",약 14시간,,,트립닷컴에서 항공권 확인하기,42.65,18.09
5,로마,모든 길이 통하는 영원한 도시,it,쾌청함,16-24°C,"5월 로마는 관광하기 최적의 날씨입니다. 콜로세움, 트레비 분수, 바티칸 박물관, 스페인 계단의 봄꽃까지 수천 년 역사와 최고의 날씨가 만나 여행의 모든 것을 충족시켜 줍니다.",https://images.unsplash.com/photo-1552832230-c0197dd311b5?w=800,"₩1,350,000~",약 13시간,,,트립닷컴에서 항공권 확인하기,41.9,12.5
5,바르셀로나,"가우디의 도시, 지중해 감성의 카탈루냐 수도",es,쾌청함,17-24°C,"5월 바르셀로나는 성수기 전 최적의 날씨를 자랑합니다. 사그라다 파밀리아, 파크 구엘, 바르셀로네타 해변, 람블라스 거리까지 하루 24시간이 부족할 만큼 매력적입니다.",https://images.unsplash.com/photo-1583422409516-2895a77efded?w=800,"₩1,350,000~",약 14시간,,,트립닷컴에서 항공권 확인하기,41.39,2.15
5,카르타헤나,"카리브해와 색채의 나라, 화려한 구시가",co,더움,28-33°C,"5월 카르타헤나는 건기와 우기 사이로 날씨가 적당합니다. 유네스코 세계문화유산인 구시가의 형형색색 건물들, 말레콘 산책로, 근교 섬 로살리오까지 콜롬비아의 반전 매력에 빠져드세요.",https://images.unsplash.com/photo-1568585219172-c04a50f9e88b?w=800,"₩1,800,000~",약 20시간(경유),,,트립닷컴에서 항공권 확인하기,10.4,-75.51
5,뉴욕(봄),"세상의 수도, 뉴욕의 봄은 특별하다",us,쾌청함,14-22°C,"5월 뉴욕은 센트럴 파크에 꽃이 피고 브루클린 다리 아래 튤립 필드가 장관입니다. 브로드웨이 뮤지컬, 메트로폴리탄 미술관, 하이라인 파크까지 봄의 뉴욕은 살아 숨 쉽니다.",https://images.unsplash.com/photo-1496442226666-8d4d0e62e6e9?w=800,"₩1,300,000~",약 14시간,,,트립닷컴에서 항공권 확인하기,40.71,-74.01
5,산토리니,하얀 건물과 푸른 돔이 빛나는 최고의 일몰 명소,gr,화창함,20-28°C,하얀 건물과 푸른 돔이 아름다운 산토리니. 세계에서 가장 아름다운 일몰을 감상하며 로맨틱한 시간을 보낼 수 있는 최고의 여행지입니다.,https://images.unsplash.com/photo-1497339047006-39f2b26f005d?crop=entropy&cs=tinysrgb&fit=max&fm=jpg&ixid=M3w3Nzg4Nzd8MHwxfHNlYXJjaHwxfHxTYW50b3JpbmklMjBHcmVlY2UlMjB3aGl0ZSUyMGJ1aWxkaW5nc3xlbnwxfHx8fDE3NzE3MzIwMjN8MA&ixlib=rb-4.1.0&q=80&w=1080&utm_source=figma&utm_medium=referral,"₩950,000~",경유 약 14시간,,,트립닷컴에서 항공권 확인하기,36.39,25.46
5,바르셀로나,가우디 건축과 지중해 해변이 만나는 도시,es,화창함,18-26°C,"사그라다 파밀리아, 구엘 공원 등 가우디의 건축물로 유명한 바르셀로나. 지중해의 아름다운 해변과 맛있는 타파스를 즐길 수 있습니다.",https://images.unsplash.com/photo-1595685842822-7893ddb30176?crop=entropy&cs=tinysrgb&fit=max&fm=jpg&ixid=M3w3Nzg4Nzd8MHwxfHNlYXJjaHwxfHxCYXJjZWxvbmElMjBTcGFpbiUyMGFyY2hpdGVjdHVyZXxlbnwxfHx8fDE3NzE2NjYzNDJ8MA&ixlib=rb-4.1.0&q=80&w=1080&utm_source=figma&utm_medium=referral,"₩850,000~",직항 약 12시간,,,트립닷컴에서 항공권 확인하기,41.39,2.15
6,괌,"미국령 열대 섬, 가장 가까운 비치 리조트",us,더움,27-32°C,"6월은 괌의 건기로 투몬 비치에서 스노클링, 파라세일링을 즐기기 좋습니다. 가까운 거리에 미국 분위기, 맑은 바닷물, 아웃렛 쇼핑까지 패키지로 즐기기 좋은 여름 여행지입니다.",https://images.unsplash.com/photo-1559666126-84f389727b9a?w=800,"₩500,000~",약 4시간,,,트립닷컴에서 항공권 확인하기,13.44,144.79
6,세부,"산호초 다이빙의 성지, 흰 모래의 말람파야",ph,더움,28-34°C,"6월은 세부의 건기 마지막 달로 스노클링, 다이빙, 고래상어와 함께 수영하는 체험을 즐길 수 있습니다. 막탄 리조트 비치와 오스메냐 피크 하이킹도 매력적인 경험입니다.",https://images.unsplash.com/photo-1573863141743-17e33dc7c9b1?w=800,"₩500,000~",약 5시간,,,트립닷컴에서 항공권 확인하기,10.32,123.9
6,레이캬비크,"백야의 나라, 지구의 가장 극적인 자연",is,서늘함,8-15°C,"6월 아이슬란드는 백야로 24시간 해가 지지 않습니다. 골든 서클, 요쿨살론 빙하호수, 검은 모래 해변까지 지구상 다른 어느 곳과도 다른 풍경을 경험합니다.",https://images.unsplash.com/photo-1476610182048-b716b8518aae?w=800,"₩1,800,000~",약 14시간(경유),,,트립닷컴에서 항공권 확인하기,64.13,-21.93
6,베르겐,"피요르드로 가는 관문, 북유럽의 보석 항구",no,쾌청함,12-18°C,"6월 베르겐에서 출발하는 피요르드 크루즈는 평생의 절경을 선사합니다. 네로이 피요르드, 플롬 산악열차, 브뤼겐 목조 가옥 거리까지 북유럽 자연의 진수를 맛볼 수 있습니다.",https://images.unsplash.com/photo-1601439678777-b2b3c56fa627?w=800,"₩1,600,000~",약 13시간,,,트립닷컴에서 항공권 확인하기,60.39,5.32
6,알가르베,"유럽 최고의 해변 리조트, 황토빛 절벽",pt,더움,22-28°C,"6월 알가르베는 유럽 최고의 해변 휴양지로 황금빛 절벽이 눈부신 해변과 맞닿습니다. 라고스, 알보르, 프라이아 다 호샤 해변에서 서핑과 카약을 즐겨보세요.",https://images.unsplash.com/photo-1575459942015-3668cde4a75d?w=800,"₩1,300,000~",약 14시간,,,트립닷컴에서 항공권 확인하기,37.13,-8.54
6,피렌체,"르네상스의 탄생지, 미켈란젤로의 도시",it,더움,22-30°C,"6월은 성수기 직전으로 우피치 미술관, 두오모 성당, 베키오 다리를 비교적 여유롭게 즐길 수 있습니다. 키안티 와인 산지 드라이브와 토스카나 아그리투리스모 숙박을 추천합니다.",https://images.unsplash.com/photo-1541370976299-4d24be5d982d?w=800,"₩1,350,000~",약 13시간,,,트립닷컴에서 항공권 확인하기,43.77,11.26
6,아타카마(산티아고),"안데스와 태평양, 달의 계곡 소금사막",cl,서늘함,8-15°C,"남반구의 초겨울인 6월은 아타카마 사막 여행 최고 시즌입니다. 문 밸리, 살라르 데 아타카마, 알티플라노 간헐천까지 지구의 극한 환경을 경험합니다.",https://images.unsplash.com/photo-1528360983277-13d401cdc186?w=800,"₩2,000,000~",약 23시간(경유),,,트립닷컴에서 항공권 확인하기,-23.65,-70.4
6,샌프란시스코,"골든게이트와 안개, 히피의 성지",us,서늘함,13-18°C,"6월 샌프란시스코는 여름이지만 의외로 서늘합니다. 골든게이트 브리지 자전거 투어, 알카트라즈 섬, 차이나타운, 피셔맨스 워프의 크랩 차우더까지 독특한 도시 문화를 즐겨보세요.",https://images.unsplash.com/photo-1501594907352-04cda38ebc29?w=800,"₩1,300,000~",약 10시간 30분,,,트립닷컴에서 항공권 확인하기,37.77,-122.42
6,레이캬비크,오로라와 온천이 있는 신비로운 북극 도시,is,서늘함,10-15°C,"장엄한 자연 경관과 오로라, 온천으로 유명한 아이슬란드. 여름에는 백야를, 겨울에는 오로라를 감상할 수 있는 신비로운 여행지입니다.",https://images.unsplash.com/photo-1488415032361-b7e238421f1b?crop=entropy&cs=tinysrgb&fit=max&fm=jpg&ixid=M3w3Nzg4Nzd8MHwxfHNlYXJjaHwxfHxJY2VsYW5kJTIwbm9ydGhlcm4lMjBsaWdodHN8ZW58MXx8fHwxNzcxNjY1NjQwfDA&ixlib=rb-4.1.0&q=80&w=1080&utm_source=figma&utm_medium=referral,"₩1,100,000~",직항 약 14시간,,,트립닷컴에서 항공권 확인하기,64.13,-21.93
6,인터라켄,알프스와 에메랄드 호수가 있는 스위스의 관문,ch,쾌청함,15-23°C,"알프스 산맥의 절경을 감상할 수 있는 스위스. 융프라우, 마터호른 등 웅장한 산과 에메랄드빛 호수가 어우러진 환상적인 풍경을 즐길 수 있습니다.",https://images.unsplash.com/photo-1705081242921-7ac750a0f8f6?crop=entropy&cs=tinysrgb&fit=max&fm=jpg&ixid=M3w3Nzg4Nzd8MHwxfHNlYXJjaHwxfHxTd2l0emVybGFuZCUyMEFscHMlMjBtb3VudGFpbnN8ZW58MXx8fHwxNzcxNzQ3NzU2fDA&ixlib=rb-4.1.0&q=80&w=1080&utm_source=figma&utm_medium=referral,"₩1,050,000~",경유 약 14시간,,,트립닷컴에서 항공권 확인하기,46.69,7.87
7,삿포로(라벤더),"후라노 라벤더 밭, 홋카이도 여름의 절정",jp,쾌청함,20-27°C,"7월 후라노와 비에이의 라벤더 밭이 보라색으로 물드는 시기입니다. 홋카이도 여름은 일본 본토보다 훨씬 시원하고 쾌적합니다. 라벤더 아이스크림, 팜 투어, 구릉 드라이브를 즐겨보세요.",https://images.unsplash.com/photo-1542051841857-5f90071e7989?w=800,"₩500,000~",약 3시간,,,트립닷컴에서 항공권 확인하기,43.06,141.35
7,몰디브,"인도양의 수상 빌라, 지구에서 가장 투명한 바다",mv,더움,28-32°C,"7월은 몰디브 우기이지만 짧은 소나기 후 맑게 개어 스노클링 최적 조건을 만듭니다. 수상 빌라에서 바라보는 형광빛 바다, 산호초 다이빙, 돌고래 선셋 크루즈는 평생 기억될 경험입니다.",https://images.unsplash.com/photo-1506905925346-21bda4d32df4?w=800,"₩2,000,000~",약 8시간,,,트립닷컴에서 항공권 확인하기,3.2,73.22
7,길리 트라왕안,"차 없는 섬, 자전거로 돌아보는 낙원",id,더움,27-32°C,발리 북쪽 길리 섬은 7월 건기로 해수가 가장 맑습니다. 오토바이도 자동차도 없는 섬에서 자전거나 도보로 이동하며 세계 최고 수준의 다이빙과 스노클링을 즐길 수 있습니다.,https://images.unsplash.com/photo-1484821582734-6c6c9f99a672?w=800,"₩800,000~",약 7시간,,,트립닷컴에서 항공권 확인하기,-8.35,116.03
7,코펜하겐,"세계 최고의 행복 도시, 북유럽 디자인의 발원지",dk,쾌청함,17-22°C,"7월 코펜하겐 여름은 1년 중 가장 활기찬 시즌입니다. 티볼리 공원 야외 콘서트, 스트뢰겟 거리 야외 카페, 뉘하운 항구의 형형색색 건물 앞 맥주 한 잔이 완벽한 북유럽 여름을 완성합니다.",https://images.unsplash.com/photo-1534430480872-3498386e7856?w=800,"₩1,500,000~",약 13시간,,,트립닷컴에서 항공권 확인하기,55.68,12.57
7,두브로브니크(섬 호핑),아드리아해 에메랄드 섬들의 황홀한 크루즈,hr,더움,26-32°C,"7월 크로아티아 섬 호핑이 절정입니다. 흐바르, 코르출라, 비스 섬의 에메랄드 빛 바다와 라벤더 밭, 올리브 나무 숲을 즐기세요. 요트 크루즈나 페리를 이용한 섬 투어를 강력 추천합니다.",https://images.unsplash.com/photo-1555990538-1ebee592f0fe?w=800,"₩1,500,000~",약 14시간,,,트립닷컴에서 항공권 확인하기,42.65,18.09
7,에든버러,"스코틀랜드 고성과 위스키, 에든버러 페스티벌 전야",gb,서늘함,14-20°C,"8월 에든버러 페스티벌 직전인 7월은 조용하고 쾌적합니다. 에든버러 성, 아서스 시트 트레킹, 스카이 섬 드라이브, 하이랜드 위스키 투어까지 스코틀랜드의 야성을 경험하세요.",https://images.unsplash.com/photo-1601469246611-0ad28d4e3b90?w=800,"₩1,300,000~",약 13시간,,,트립닷컴에서 항공권 확인하기,55.95,-3.19
7,마추픽추,"잉카의 공중 도시, 세계 7대 불가사의",pe,서늘함,7-17°C,7월은 페루 건기로 마추픽추를 가장 맑게 볼 수 있는 황금 시즌입니다. 잉카 트레일 하이킹이나 기차로 올라가 태양의 문에서 맞이하는 일출은 일생에 한 번의 경험이 됩니다.,https://images.unsplash.com/photo-1526392060635-9d6019884377?w=800,"₩2,200,000~",약 22시간(경유),,,트립닷컴에서 항공권 확인하기,-13.16,-72.54
7,밴프,"에메랄드 호수와 빙하, 로키 산맥의 심장",ca,쾌청함,14-22°C,"7월 밴프는 콜럼비아 빙원 투어, 루이스 호수 카누, 재스퍼 국립공원 드라이브가 가능한 최적기입니다. 에메랄드 빛 빙하 호수 위에 반영된 만년설이 캐나다 로키의 진수입니다.",https://images.unsplash.com/photo-1509316785289-025f5b846b35?w=800,"₩1,500,000~",약 11시간,,,트립닷컴에서 항공권 확인하기,51.18,-115.57
7,뉴욕,자유의 여신상과 타임스퀘어가 있는 세계 문화 수도,us,맑음,20-28°C,"자유의 여신상, 타임스퀘어, 센트럴파크 등 상징적인 명소가 가득한 뉴욕. 다양한 문화와 예술, 쇼핑을 즐길 수 있는 세계적인 대도시입니다.",https://images.unsplash.com/photo-1623250308777-924f865bce80?crop=entropy&cs=tinysrgb&fit=max&fm=jpg&ixid=M3w3Nzg4Nzd8MHwxfHNlYXJjaHwxfHxOZXclMjBZb3JrJTIwQ2l0eSUyME1hbmhhdHRhbnxlbnwxfHx8fDE3NzE3MjY5ODR8MA&ixlib=rb-4.1.0&q=80&w=1080&utm_source=figma&utm_medium=referral,"₩900,000~",직항 약 14시간,,,트립닷컴에서 항공권 확인하기,40.71,-74.01
8,블라디보스토크,"가장 가까운 유럽 분위기, 시베리아 횡단의 출발점",ru,쾌청함,18-25°C,"8월 블라디보스토크는 1년 중 가장 따뜻하고 쾌적합니다. 황금교, 루스키 섬, 독수리 전망대에서 보는 항구 전망, 해산물 시장까지 가장 가까운 러시아를 부담 없이 경험할 수 있습니다.",https://images.unsplash.com/photo-1578922746465-3a80a228f223?w=800,"₩300,000~",약 2시간 30분,,,트립닷컴에서 항공권 확인하기,43.12,131.89
8,라다크,"히말라야 위 고원 사막, 달의 땅",in,서늘함,8-20°C,"8월은 라다크의 여름으로 팡공초 호수, 레 왕궁, 누브라 계곡 쌍봉낙타 사파리가 가능합니다. 해발 3,500m의 고원에서 만나는 파란 하늘과 황금빛 사막은 어느 여행지와도 비교할 수 없는 절경입니다.",https://images.unsplash.com/photo-1585136917228-d40cd29e3e91?w=800,"₩1,000,000~",약 7시간(경유),,,트립닷컴에서 항공권 확인하기,34.17,77.58
8,타이베이,"야시장의 나라, 먹방 여행자의 성지",tw,더움,28-34°C,"8월 타이베이는 덥지만 지우펀, 예류 해안, 태로코 협곡이 황홀합니다. 스린 야시장과 닝샤 야시장에서 먹방 투어, 지우펀 찻집의 체험까지 대만은 언제나 기대를 뛰어넘습니다.",https://images.unsplash.com/photo-1470004914212-05527e49370b?w=800,"₩250,000~",약 2시간 30분,,,트립닷컴에서 항공권 확인하기,25.03,121.56
8,에든버러,"세계 최대 예술 축제, 에든버러 프린지 페스티벌",gb,서늘함,14-19°C,"8월 에든버러 프린지 페스티벌 기간에는 온 도시가 공연장이 됩니다. 거리 퍼포머, 코미디, 연극, 음악 공연이 동시다발로 열리며 스코틀랜드 분위기와 어우러져 잊지 못할 경험을 선사합니다.",https://images.unsplash.com/photo-1601469246611-0ad28d4e3b90?w=800,"₩1,400,000~",약 13시간,,,트립닷컴에서 항공권 확인하기,55.95,-3.19
8,아테네+미코노스,"신화의 도시와 파티의 섬, 그리스의 두 얼굴",gr,더움,28-34°C,"8월 그리스는 성수기 절정입니다. 아크로폴리스, 파르테논 신전의 역사와 미코노스 파라포르티아니 교회, 슈퍼 파라다이스 비치의 자유를 동시에 즐기는 이상적인 콤비네이션입니다.",https://images.unsplash.com/photo-1555993539-1732b0258235?w=800,"₩1,450,000~",약 13시간,,,트립닷컴에서 항공권 확인하기,37.97,23.73
8,코토르,"아드리아해 숨겨진 보석, 피요르드 닮은 만",me,더움,26-32°C,"아직 덜 알려진 몬테네그로 코토르는 8월에도 크로아티아보다 한산합니다. 베네치아풍 구시가 성벽 트레킹, 코토르 만 선셋 크루즈, 부드바 해변까지 동유럽의 숨겨진 보석입니다.",https://images.unsplash.com/photo-1586500036706-41963de24d8b?w=800,"₩1,400,000~",약 14시간,,,트립닷컴에서 항공권 확인하기,42.42,18.77
8,갈라파고스(키토),"적도 위 고원 도시, 갈라파고스로 가는 관문",ec,서늘함,10-18°C,"갈라파고스 제도 방문 최적기인 8월, 바다이구아나와 갈라파고스 펭귄, 청발가마우지를 볼 수 있습니다. 키토의 식민지 구시가도 유네스코 문화유산으로 독특한 매력이 있습니다.",https://images.unsplash.com/photo-1564760055775-d63b17a55c44?w=800,"₩2,100,000~",약 21시간(경유),,,트립닷컴에서 항공권 확인하기,-0.23,-78.52
8,마우이(하와이),"알로하 스피릿, 하와이 섬 중 가장 아름다운 섬",us,더움,27-32°C,"8월 마우이는 날씨가 가장 완벽합니다. 할레아칼라 화산 일출, 하나 로드 드라이브, 카아나팔리 해변에서의 서핑까지 하와이의 정수를 마우이에서 경험하세요.",https://images.unsplash.com/photo-1542406775-ade58c52d2e4?w=800,"₩2,000,000~",약 9시간,,,트립닷컴에서 항공권 확인하기,20.8,-156.33
8,산토리니,하얀 건물과 푸른 돔이 빛나는 최고의 일몰 명소,gr,화창함,20-28°C,하얀 건물과 푸른 돔이 아름다운 산토리니. 세계에서 가장 아름다운 일몰을 감상하며 로맨틱한 시간을 보낼 수 있는 최고의 여행지입니다.,https://images.unsplash.com/photo-1497339047006-39f2b26f005d?crop=entropy&cs=tinysrgb&fit=max&fm=jpg&ixid=M3w3Nzg4Nzd8MHwxfHNlYXJjaHwxfHxTYW50b3JpbmklMjBHcmVlY2UlMjB3aGl0ZSUyMGJ1aWxkaW5nc3xlbnwxfHx8fDE3NzE3MzIwMjN8MA&ixlib=rb-4.1.0&q=80&w=1080&utm_source=figma&utm_medium=referral,"₩950,000~",경유 약 14시간,,,트립닷컴에서 항공권 확인하기,36.39,25.46
8,발리,"해변과 사원, 라이스 테라스의 휴양 천국",id,화창함,26-31°C,"아름다운 해변과 사원, 라이스 테라스로 유명한 발리. 요가와 스파, 서핑을 즐기며 몸과 마음을 재충전할 수 있는 완벽한 휴양지입니다.",https://images.unsplash.com/photo-1604741872417-230e572a4c72?crop=entropy&cs=tinysrgb&fit=max&fm=jpg&ixid=M3w3Nzg4Nzd8MHwxfHNlYXJjaHwxfHxCYWxpJTIwSW5kb25lc2lhJTIwdGVtcGxlfGVufDF8fHx8MTc3MTc0Nzc1Nnww&ixlib=rb-4.1.0&q=80&w=1080&utm_source=figma&utm_medium=referral,"₩450,000~",직항 약 6시간 30분,,,트립닷컴에서 항공권 확인하기,-8.34,115.09
9,상하이,"동방명주의 도시, 현대와 전통의 공존",cn,쾌청함,22-28°C,"9월 상하이는 여름 무더위가 물러나고 가장 쾌적한 시기입니다. 와이탄 야경, 예원, 신천지, 티엔쯔팡 골목, 디즈니랜드까지 상하이의 모든 것을 쾌적하게 즐길 수 있습니다.",https://images.unsplash.com/photo-1537531191660-5d17d8c2a485?w=800,"₩300,000~",약 2시간,,,트립닷컴에서 항공권 확인하기,31.23,121.47
9,나트랑,"베트남 최고의 해양 리조트, 깨끗한 블루 라군",vn,쾌청함,26-32°C,"9월은 나트랑 건기로 맑고 투명한 바다를 즐기기 최고입니다. 빈펄 리조트 케이블카, 흰 모래 해변, 베트남 해산물 요리, 론 섬 스노클링까지 베트남 최고의 해변 여행을 즐겨보세요.",https://images.unsplash.com/photo-1559827260-dc66d52bef19?w=800,"₩450,000~",약 5시간,,,트립닷컴에서 항공권 확인하기,12.24,109.19
9,뮌헨(옥토버페스트),세계 최대 맥주 축제의 발원지,de,서늘함,12-18°C,9월 말~10월 초 뮌헨 옥토버페스트는 세계 최대 맥주 축제입니다. 전통 바이에른 복장을 입고 텐트에서 1리터 맥주를 마시며 오버바이에른 민속 음악을 즐기는 경험은 독일만이 줄 수 있습니다.,https://images.unsplash.com/photo-1567604460946-3e73a7c22c83?w=800,"₩1,300,000~",약 12시간 30분,,,트립닷컴에서 항공권 확인하기,48.14,11.58
9,프라하,황금빛 단풍 드리운 동화 속 동유럽 수도,cz,서늘함,12-18°C,"9월 프라하는 단풍이 물들기 시작하고 관광객도 줄어드는 이상적인 시기입니다. 카를교 위에서 보는 가을 석양, 말라 스트라나 골목 산책, 체코 맥주가 완벽한 조화를 이룹니다.",https://images.unsplash.com/photo-1541849546-216549ae216d?w=800,"₩1,150,000~",약 12시간,,,트립닷컴에서 항공권 확인하기,50.08,14.44
9,포르토피노,이탈리아 리비에라의 숨겨진 그림 같은 어촌,it,쾌청함,20-26°C,"성수기가 끝난 9월 포르토피노는 한산하고 지중해 기후가 여전히 아름답습니다. 신테레 해안 트레킹, 레몬 농장, 파스타 알 페스토 발상지 제노바까지 리구리아 해안의 진수를 즐깁니다.",https://images.unsplash.com/photo-1534351590666-13e3e96b5017?w=800,"₩1,400,000~",약 13시간,,,트립닷컴에서 항공권 확인하기,44.3,9.2
9,보드룸,"에게해 최고의 요트 문화, 터키 리비에라",tr,더움,24-30°C,"성수기 막바지인 9월 보드룸은 날씨도 좋고 인파가 줄어 완벽합니다. 보드룸 성, 에게해 블루 크루즈, 파마르 테라스 식당에서의 선셋 디너가 터키 리비에라의 진수를 선사합니다.",https://images.unsplash.com/photo-1562184957-f3a7e7ade4e5?w=800,"₩1,100,000~",약 11시간,,,트립닷컴에서 항공권 확인하기,37.03,27.43
9,메데진,"마약왕의 도시에서 혁신의 도시로, 놀라운 반전",co,쾌청함,14-22°C,"9월은 콜롬비아 여행 최적기입니다. 메데진의 놀라운 도시 혁신 스토리, 코무나 13 그라피티 투어, 모노레일 케이블카, 커피 농장 투어까지 세상이 몰랐던 콜롬비아를 발견하세요.",https://images.unsplash.com/photo-1588783264284-3c4a78e00af0?w=800,"₩1,900,000~",약 20시간(경유),,,트립닷컴에서 항공권 확인하기,6.25,-75.56
9,보스턴(뉴잉글랜드),"단풍의 나라 뉴잉글랜드, 역사와 자연의 조화",us,서늘함,15-22°C,"9월 말 뉴잉글랜드는 단풍이 시작됩니다. 보스턴 퀸시 마켓, 하버드 캠퍼스, 케이프 코드 해안, 아카디아 국립공원까지 미국 동부의 단풍 절경과 역사를 동시에 즐길 수 있습니다.",https://images.unsplash.com/photo-1512307014370-f22a59d831ab?w=800,"₩1,400,000~",약 14시간,,,트립닷컴에서 항공권 확인하기,42.36,-71.06
9,파리,에펠탑과 예술이 살아 숨 쉬는 로맨틱 도시,fr,화창함,15-25°C,"에펠탑, 루브르 박물관, 개선문 등 세계적인 명소가 가득한 파리는 언제나 여행자들의 로망입니다. 봄과 가을의 파리는 특히 아름답습니다.",https://images.unsplash.com/photo-1642947392578-b37fbd9a4d45?crop=entropy&cs=tinysrgb&fit=max&fm=jpg&ixid=M3w3Nzg4Nzd8MHwxfHNlYXJjaHwxfHxQYXJpcyUyMEZyYW5jZSUyMEVpZmZlbCUyMFRvd2VyfGVufDF8fHx8MTc3MTc0Nzc1NHww&ixlib=rb-4.1.0&q=80&w=1080&utm_source=figma&utm_medium=referral,"₩800,000~",직항 약 12시간,,,트립닷컴에서 항공권 확인하기,48.86,2.35
9,시드니,오페라 하우스와 하버 브리지의 항구 도시,au,화창함,18-25°C,"오페라 하우스와 하버 브리지로 유명한 시드니. 아름다운 해변과 활기찬 도심, 다양한 문화 체험을 즐길 수 있는 매력적인 도시입니다.",https://images.unsplash.com/photo-1718185795639-c442aff612cb?crop=entropy&cs=tinysrgb&fit=max&fm=jpg&ixid=M3w3Nzg4Nzd8MHwxfHNlYXJjaHwxfHxTeWRuZXklMjBBdXN0cmFsaWElMjBvcGVyYSUyMGhvdXNlfGVufDF8fHx8MTc3MTc0Nzc1Nnww&ixlib=rb-4.1.0&q=80&w=1080&utm_source=figma&utm_medium=referral,"₩1,000,000~",직항 약 8시간 30분,,,트립닷컴에서 항공권 확인하기,-33.87,151.21
10,도쿄,"은행나무와 단풍, 가을 도쿄의 황금빛 매력",jp,쾌청함,15-22°C,"10월 도쿄는 운치 있는 가을 단풍이 시작됩니다. 신주쿠 교엔, 메이지 신궁 앞 은행나무 가로수, 닛코 도쇼구 신사의 단풍은 봄 벚꽃과 맞먹는 절경입니다. 할로윈 시부야도 빼놓을 수 없습니다.",https://images.unsplash.com/photo-1540959733332-eab4deabeeaf?w=800,"₩400,000~",약 2시간 30분,,,트립닷컴에서 항공권 확인하기,35.68,139.69
10,장가계,"아바타 촬영지, 하늘을 찌르는 기암 절경",cn,쾌청함,15-22°C,"10월 장가계는 단풍으로 물든 기암괴석이 운해 속에 떠 있는 환상적인 절경을 연출합니다. 유리 다리, 천문산 케이블카, 원가계 협곡 트레킹까지 아바타 이후 더 유명해진 중국의 절경입니다.",https://images.unsplash.com/photo-1547036967-23d11aacaee0?w=800,"₩500,000~",약 4시간,,,트립닷컴에서 항공권 확인하기,29.12,110.48
10,다르질링,"히말라야 아래 홍차 밭, 장난감 기차의 고원",in,서늘함,12-18°C,"10월은 다르질링 최고의 계절입니다. 티 가든에서 홍차 수확 체험, 세계유산 다르질링 히말라야 철도, 타이거 힐에서 바라보는 칸첸중가봉 일출은 잊지 못할 경험입니다.",https://images.unsplash.com/photo-1585136917228-d40cd29e3e91?w=800,"₩800,000~",약 7시간(경유),,,트립닷컴에서 항공권 확인하기,27.04,88.26
10,피렌체(토스카나),"올리브 수확과 와인 축제, 이탈리아 가을의 맛",it,쾌청함,14-22°C,10월 토스카나는 와인 수확 철로 키안티와 브루넬로 와이너리에서 빈티지 테이스팅이 가능합니다. 성수기가 지나 한적한 피렌체와 단풍 드리운 사이프러스 가로수길이 완벽한 조화를 이룹니다.,https://images.unsplash.com/photo-1541370976299-4d24be5d982d?w=800,"₩1,350,000~",약 13시간,,,트립닷컴에서 항공권 확인하기,43.77,11.26
10,스코틀랜드 하이랜드,"네스 호수와 단풍, 스코틀랜드의 황금빛 가을",gb,서늘함,8-14°C,"10월 하이랜드는 황금빛 히스와 단풍이 물드는 최고의 시즌입니다. 네스 호수와 어쿼트 성, 글렌코 계곡, 케언고름스 국립공원의 절경을 드라이브로 즐겨보세요.",https://images.unsplash.com/photo-1484914440372-9b780d9fcdc7?w=800,"₩1,350,000~",약 13시간,,,트립닷컴에서 항공권 확인하기,57.12,-4.71
10,부다페스트,"도나우강의 야경, 동유럽의 숨은 왕궁 도시",hu,서늘함,10-17°C,"10월 부다페스트는 도나우강 위로 단풍이 지고 야경이 황홀합니다. 세체니 온천, 부다 성, 국회의사당, 유대인 지구 루인바까지 프라하보다 저렴하지만 매력은 뒤지지 않는 도시입니다.",https://images.unsplash.com/photo-1551867633-194f125bddfa?w=800,"₩1,150,000~",약 12시간,,,트립닷컴에서 항공권 확인하기,47.5,19.04
10,판타나우,"세계 최대 열대 습지, 재규어와 카피바라의 서식지",br,서늘함,18-28°C,"10월 판타나우는 건기 막바지로 동물 관찰 최적기입니다. 재규어, 카피바라, 황새 투카노 등 남미 야생동물을 가장 가까이서 볼 수 있는 곳입니다. 세계 최대 열대 습지의 광활함을 체험하세요.",https://images.unsplash.com/photo-1483729558449-99ef09a8c325?w=800,"₩2,100,000~",약 22시간(경유),,,트립닷컴에서 항공권 확인하기,-17.72,-57.43
10,뉴올리언스(가을),"재즈 페스티벌, 가을의 프렌치 쿼터",us,쾌청함,18-25°C,"10월 뉴올리언스는 가을 재즈 페스티벌이 열리고 덜 덥습니다. 프렌치 쿼터의 발코니 아이언 레이스, 가든 디스트릭트 저택, 뱀파이어 투어까지 가을 분위기와 어우러진 뉴올리언스는 더 신비롭습니다.",https://images.unsplash.com/photo-1619112038068-a71c2f2cd28a?w=800,"₩1,600,000~",약 16시간(경유),,,트립닷컴에서 항공권 확인하기,29.95,-90.07
10,도쿄,전통과 현대가 조화로운 일본의 수도,jp,맑음,5-15°C,"일본의 수도 도쿄는 전통과 현대가 조화롭게 어우러진 매력적인 도시입니다. 봄에는 아름다운 벚꽃을, 가을에는 단풍을, 겨울에는 일루미네이션을 즐길 수 있습니다.",https://images.unsplash.com/photo-1648871647634-0c99b483cb63?crop=entropy&cs=tinysrgb&fit=max&fm=jpg&ixid=M3w3Nzg4Nzd8MHwxfHNlYXJjaHwxfHxUb2t5byUyMEphcGFuJTIwY2l0eXNjYXBlfGVufDF8fHx8MTc3MTc0MjI1M3ww&ixlib=rb-4.1.0&q=80&w=1080&utm_source=figma&utm_medium=referral,"₩350,000~",직항 약 2시간 30분,,,트립닷컴에서 항공권 확인하기,35.68,139.69
10,뉴욕,자유의 여신상과 타임스퀘어가 있는 세계 문화 수도,us,맑음,20-28°C,"자유의 여신상, 타임스퀘어, 센트럴파크 등 상징적인 명소가 가득한 뉴욕. 다양한 문화와 예술, 쇼핑을 즐길 수 있는 세계적인 대도시입니다.",https://images.unsplash.com/photo-1623250308777-924f865bce80?crop=entropy&cs=tinysrgb&fit=max&fm=jpg&ixid=M3w3Nzg4Nzd8MHwxfHNlYXJjaHwxfHxOZXclMjBZb3JrJTIwQ2l0eSUyME1hbmhhdHRhbnxlbnwxfHx8fDE3NzE3MjY5ODR8MA&ixlib=rb-4.1.0&q=80&w=1080&utm_source=figma&utm_medium=referral,"₩900,000~",직항 약 14시간,,,트립닷컴에서 항공권 확인하기,40.71,-74.01
11,앙코르와트,"동남아 최대 힌두 사원, 밀림 속 유적의 도시",kh,쾌청함,24-32°C,"11월은 캄보디아 건기 시작으로 앙코르와트 여행 최적기입니다. 앙코르와트 일출, 바이욘 사원 미소 부처, 타 프롬 정글 유적까지 세계 3대 유적 중 하나를 인파 없이 즐길 수 있습니다.",https://images.unsplash.com/photo-1540611025311-01df3cef54b5?w=800,"₩550,000~",약 6시간,,,트립닷컴에서 항공권 확인하기,13.41,103.87
11,바간,"3천 개 불탑의 평원, 동남아의 숨겨진 절경",mm,쾌청함,22-30°C,"11월 건기 바간은 열기구 탑승이 가능한 최고의 시즌입니다. 새벽 안개 속 3,000여 개의 황금 불탑 위로 떠오르는 열기구에서 바라보는 바간 평원은 지상 최고의 절경 중 하나입니다.",https://images.unsplash.com/photo-1505994026544-d4c5b0c26c13?w=800,"₩700,000~",약 6시간 30분,,,트립닷컴에서 항공권 확인하기,21.17,94.86
11,아유타야(방콕),"태국 고도 아유타야, 코끼리와 함께한 황성",th,쾌청함,27-33°C,11월 태국 건기 시작으로 아유타야 역사 공원의 황성을 편하게 둘러볼 수 있습니다. 코끼리를 타고 유적을 관람하거나 자전거로 자유롭게 이동하며 태국의 역사를 깊이 즐겨보세요.,https://images.unsplash.com/photo-1563492065599-3520f775eeed?w=800,"₩500,000~",약 6시간,,,트립닷컴에서 항공권 확인하기,14.35,100.56
11,마라케시(가을),"스파이스 마켓과 리야드, 이슬람 문화의 향연",ma,쾌청함,14-22°C,"11월 마라케시는 가장 쾌적한 시즌입니다. 제마엘프나 광장의 음악과 향신료, 슈크 시장 쇼핑, 마조렐 정원, 사하라 사막 1박 투어까지 모로코의 진수를 완벽한 날씨 속에 즐깁니다.",https://images.unsplash.com/photo-1539020140153-e479b8c22e70?w=800,"₩1,300,000~",약 13시간,,,트립닷컴에서 항공권 확인하기,31.63,-8.0
11,리스본(가을),파두 음악이 흐르는 가을 언덕 도시,pt,서늘함,12-18°C,"11월 비수기 리스본은 항공권과 호텔이 저렴하고 인파도 적습니다. 알파마 골목의 파두 라이브, 파스텔 드 나타, 트램 28번선, 신트라 궁전까지 유럽 최고의 가성비 여행지입니다.",https://images.unsplash.com/photo-1605130284535-11dd9eedc58a?w=800,"₩1,150,000~",약 14시간,,,트립닷컴에서 항공권 확인하기,38.72,-9.14
11,피렌체(비수기),관광객 없는 조용한 르네상스 도시,it,서늘함,9-15°C,11월 피렌체는 대기줄 없이 우피치 갤러리에서 보티첼리와 미켈란젤로를 감상할 수 있습니다. 비수기라 고급 레스토랑도 예약 없이 방문 가능하며 지역 주민들의 일상을 더 가까이 볼 수 있습니다.,https://images.unsplash.com/photo-1534430480872-3498386e7856?w=800,"₩1,200,000~",약 13시간,,,트립닷컴에서 항공권 확인하기,43.77,11.26
11,우유니,"세상에서 가장 큰 거울, 반영의 기적",bo,더움,10-20°C,11월은 우유니 우기 시작으로 얕은 물 위에 하늘이 완벽하게 반영되는 황홀한 계절이 시작됩니다. 소금 사막 위의 거울 같은 반영 사진은 일생에 한 번은 찍어야 할 버킷리스트입니다.,https://images.unsplash.com/photo-1531761535209-180857e963b9?w=800,"₩2,200,000~",약 24시간(경유),,,트립닷컴에서 항공권 확인하기,-20.47,-66.83
11,오악사카,"해골과 꽃의 축제, 죽음을 기념하는 화려한 멕시코",mx,쾌청함,16-24°C,"11월 1~2일 디아 드 로스 무에르토스 축제가 열리는 오악사카는 멕시코 최고의 여행 시즌입니다. 화려한 꽃 장식과 해골 코스튬, 마리아치 음악이 어우러진 이 축제는 유네스코 무형유산입니다.",https://images.unsplash.com/photo-1518638150340-f706e86654de?w=800,"₩1,700,000~",약 16시간(경유),,,트립닷컴에서 항공권 확인하기,17.07,-96.72
11,뉴욕,"세계 최대 퍼레이드, 뉴욕의 추수감사절 매직",us,서늘함,5-12°C,"11월 추수감사절 전후 뉴욕은 메이시스 퍼레이드, 메트로폴리탄 뮤지엄 특별전, 크리스마스 장식이 시작되는 마법 같은 시기입니다. 플랫아이언 빌딩 단풍과 센트럴 파크 가을도 황홀합니다.",https://images.unsplash.com/photo-1496442226666-8d4d0e62e6e9?w=800,"₩1,400,000~",약 14시간,,,트립닷컴에서 항공권 확인하기,40.71,-74.01
11,몰디브,세계에서 가장 아름다운 해변과 럭셔리 리조트,mv,맑음,28-32°C,"세계에서 가장 아름다운 해변과 럭셔리 리조트로 유명한 몰디브. 스노클링, 다이빙 등 다양한 해양 스포츠를 즐기며 완벽한 휴식을 취할 수 있습니다.",https://images.unsplash.com/photo-1698726654862-377c0218dfdc?crop=entropy&cs=tinysrgb&fit=max&fm=jpg&ixid=M3w3Nzg4Nzd8MHwxfHNlYXJjaHwxfHxNYWxkaXZlcyUyMGJlYWNoJTIwcmVzb3J0fGVufDF8fHx8MTc3MTc0Nzc1NXww&ixlib=rb-4.1.0&q=80&w=1080&utm_source=figma&utm_medium=referral,"₩1,200,000~",직항 약 8시간,,,트립닷컴에서 항공권 확인하기,3.2,73.22
11,두바이,부르즈 칼리파와 럭셔리가 있는 중동의 허브,ae,쾌적함,20-30°C,"세계 최고층 건물 부르즈 칼리파와 럭셔리 쇼핑몰, 인공 섬 팜 주메이라 등 화려한 볼거리가 가득한 두바이. 겨울철 여행지로 최고입니다.",https://images.unsplash.com/photo-1678789515224-a60b886cf119?crop=entropy&cs=tinysrgb&fit=max&fm=jpg&ixid=M3w3Nzg4Nzd8MHwxfHNlYXJjaHwxfHxEdWJhaSUyMFVBRSUyMHNreWxpbmV8ZW58MXx8fHwxNzcxNjU1NzYwfDA&ixlib=rb-4.1.0&q=80&w=1080&utm_source=figma&utm_medium=referral,"₩650,000~",직항 약 8시간,,,트립닷컴에서 항공권 확인하기,25.2,55.27
12,오사카,"겨울 먹방의 도시, 화려한 크리스마스 조명",jp,서늘함,7-12°C,"12월 오사카는 도톤보리와 난바, 루미나리에 조명이 도시를 빛으로 수놓습니다. 오코노미야키, 다코야키, 쿠시카츠 먹방 투어와 함께 유니버설 스튜디오 재팬 크리스마스 이벤트도 즐겨보세요.",https://images.unsplash.com/photo-1551641506-ee5bf4cb45f1?w=800,"₩400,000~",약 2시간,,,트립닷컴에서 항공권 확인하기,34.69,135.5
12,스리랑카,"인도양의 눈물, 홍차와 불교의 섬나라",lk,쾌청함,25-30°C,"12월은 스리랑카 서해안 건기로 콜롬보와 갈레 요새 여행 최적기입니다. 시기리야 바위 요새 등반, 홍차 산지 누와라엘리야, 야생 코끼리 핀나왈라까지 완벽한 동선으로 다채로운 매력을 경험하세요.",https://images.unsplash.com/photo-1566552881560-0be862a7c445?w=800,"₩800,000~",약 9시간(경유),,,트립닷컴에서 항공권 확인하기,7.87,80.77
12,치앙마이(축등 축제),수천 개 등불이 하늘을 가득 채우는 이 페팽 축제,th,서늘함,15-25°C,12월 치앙마이는 건기 절정으로 야시장 야외 좌석에서 저녁 바람을 즐기기 최고입니다. 이 페팽 등불 축제를 경험하면 수천 개의 등불이 하늘로 날아오르는 몽환적인 장면을 목격하게 됩니다.,https://images.unsplash.com/photo-1484417894907-623942c8ee29?w=800,"₩550,000~",약 6시간,,,트립닷컴에서 항공권 확인하기,18.79,98.98
12,비엔나(크리스마스),"유럽 최고의 크리스마스 마켓, 클림트와 왈츠의 도시",at,서늘함,0-6°C,"12월 비엔나 크리스마스 마켓은 유럽 최고입니다. 비엔나 시청사 앞 마르크트, 글뤼바인 한 잔, 클림트 미술관, 오페라 하우스, 쇤브룬 궁전까지 클래식한 크리스마스의 모든 것이 있습니다.",https://images.unsplash.com/photo-1516550893923-42d28e5677af?w=800,"₩1,400,000~",약 13시간,,,트립닷컴에서 항공권 확인하기,48.21,16.37
12,스트라스부르,"세계 최초 크리스마스 마켓, 알자스의 동화 마을",fr,서늘함,0-6°C,1570년부터 시작된 세계 최초의 크리스마스 마켓이 열리는 스트라스부르는 12월에 방문해야 하는 도시입니다. 쁘띠 프랑스 지구의 목조 건물에 장식된 크리스마스 조명은 동화 속 풍경입니다.,https://images.unsplash.com/photo-1522926193341-e9ffd686c60f?w=800,"₩1,300,000~",약 13시간,,,트립닷컴에서 항공권 확인하기,48.57,7.75
12,라플란드(핀란드),"산타의 고향, 오로라와 얼음 호텔의 나라",fi,서늘함,-15~-5°C,"12월은 핀란드 라플란드에서 오로라를 볼 수 있는 최적 시기입니다. 산타 빌리지, 얼음 호텔, 순록 썰매, 오로라 헌팅까지 겨울 동화 속으로 들어가는 경험을 하게 됩니다.",https://images.unsplash.com/photo-1531366936337-7c912a4589a7?w=800,"₩1,800,000~",약 14시간(경유),,,트립닷컴에서 항공권 확인하기,66.5,25.73
12,리우데자네이루(새해),"코파카바나 새해 폭죽, 세계 최대 카운트다운",br,더움,26-34°C,12월 31일 코파카바나 해변의 리우 새해 카운트다운은 세계 최대 규모입니다. 200만 명이 흰 옷을 입고 예만자 여신에게 꽃을 바치며 바다로 걸어 들어가는 의식은 평생 잊지 못할 장면입니다.,https://images.unsplash.com/photo-1483729558449-99ef09a8c325?w=800,"₩2,200,000~",약 22시간(경유),,,트립닷컴에서 항공권 확인하기,-22.91,-43.17
12,뉴욕(크리스마스&새해),"세계에서 가장 유명한 새해 카운트다운, 타임스퀘어",us,서늘함,-2~6°C,"12월 뉴욕 록펠러 센터 크리스마스 트리, 오르세 스케이트 링크, 5번가 쇼윈도 장식은 크리스마스 정취의 절정입니다. 타임스퀘어 새해 볼 드롭은 전 세계에 생중계되는 세계 최고의 카운트다운입니다.",https://images.unsplash.com/photo-1496442226666-8d4d0e62e6e9?w=800,"₩1,600,000~",약 14시간,,,트립닷컴에서 항공권 확인하기,40.71,-74.01
12,칸쿤(새해),카리브해 리조트에서 맞이하는 화려한 신년 파티,mx,더움,24-30°C,"12월은 칸쿤 건기로 연말 연시를 따뜻한 카리브해 리조트에서 보내기 최적입니다. 호텔 존의 올인클루시브 리조트, 세노테 투어, 마야 유적지 방문까지 한 번에 즐길 수 있는 멕시코 연말 여행입니다.",https://images.unsplash.com/photo-1552074284-5e88ef1aef18?w=800,"₩1,900,000~",약 18시간(경유),,,트립닷컴에서 항공권 확인하기,21.16,-86.85
12,레이캬비크,오로라와 온천이 있는 신비로운 북극 도시,is,서늘함,10-15°C,"장엄한 자연 경관과 오로라, 온천으로 유명한 아이슬란드. 여름에는 백야를, 겨울에는 오로라를 감상할 수 있는 신비로운 여행지입니다.",https://images.unsplash.com/photo-1488415032361-b7e238421f1b?crop=entropy&cs=tinysrgb&fit=max&fm=jpg&ixid=M3w3Nzg4Nzd8MHwxfHNlYXJjaHwxfHxJY2VsYW5kJTIwbm9ydGhlcm4lMjBsaWdodHN8ZW58MXx8fHwxNzcxNjY1NjQwfDA&ixlib=rb-4.1.0&q=80&w=1080&utm_source=figma&utm_medium=referral,"₩1,100,000~",직항 약 14시간,,,트립닷컴에서 항공권 확인하기,64.13,-21.93
12,인터라켄,알프스와 에메랄드 호수가 있는 스위스의 관문,ch,쾌청함,15-23°C,"알프스 산맥의 절경을 감상할 수 있는 스위스. 융프라우, 마터호른 등 웅장한 산과 에메랄드빛 호수가 어우러진 환상적인 풍경을 즐길 수 있습니다.",https://images.unsplash.com/photo-1705081242921-7ac750a0f8f6?crop=entropy&cs=tinysrgb&fit=max&fm=jpg&ixid=M3w3Nzg4Nzd8MHwxfHNlYXJjaHwxfHxTd2l0emVybGFuZCUyMEFscHMlMjBtb3VudGFpbnN8ZW58MXx8fHwxNzcxNzQ3NzU2fDA&ixlib=rb-4.1.0&q=80&w=1080&utm_source=figma&utm_medium=referral,"₩1,050,000~",경유 약 14시간,,,트립닷컴에서 항공권 확인하기,46.69,7.87
12,삿포로(겨울),"눈의 왕국 삿포로, 유키 마쓰리와 온천의 계절",jp,서늘함,-8~-2°C,"12월 삿포로는 하얀 설원으로 변신합니다. 오도리 공원의 크리스마스 일루미네이션, 근교 조잔케이 온천에서의 설경 노천탕, 삿포로 눈 축제(유키 마쓰리) 준비 시즌의 활기찬 도시를 즐겨보세요. 스키 리조트 루스츠·기로로도 시즌 오픈해 스키 여행자에게 최적입니다.",https://images.unsplash.com/photo-1542051841857-5f90071e7989?w=800,"₩350,000~",약 3시간,,,트립닷컴에서 항공권 확인하기,43.06,141.35
